City_ID,City,Lat,Lng,Max Temp,Humidity,Cloudiness,Wind Speed,Country,Date
0,vaini,-21.2,-175.2,28.09,69,40,3.09,TO,1678138646
1,ixtapa,20.7,-105.2,24.57,61,0,6.17,MX,1678138646
2,puerto ayora,-0.7393,-90.3518,28.98,88,91,3.13,EC,1678138647
3,lebu,-37.6167,-73.65,17.49,84,56,4.55,CL,1678138647
4,albany,42.6001,-73.9662,6.23,51,88,0.45,US,1678138411
5,bethel,41.3712,-73.414,10.17,25,0,5.66,US,1678138647
6,busselton,-33.65,115.3333,12.28,82,0,5.41,AU,1678138648
7,bluff,-46.6,168.3333,13.22,65,100,4.19,NZ,1678138648
8,kommunisticheskiy,61.6789,64.4819,-22.28,100,96,1.78,RU,1678138648
9,thompson,55.7435,-97.8558,-16.91,55,20,2.57,CA,1678138649
10,georgetown,5.4112,100.3354,26.64,76,20,2.57,MY,1678138464
11,katsuura,35.1333,140.3,10.5,74,0,0.74,JP,1678138649
12,emerald,-23.5333,148.1667,22.41,85,32,4.08,AU,1678138650
13,hilo,19.7297,-155.09,27.36,70,0,3.09,US,1678138439
14,bubaque,11.2833,-15.8333,25.01,69,100,7.46,GW,1678138650
15,lagoa,39.05,-27.9833,15.85,92,99,12.66,PT,1678138650
16,esperance,-33.8667,121.9,14.81,63,39,2.68,AU,1678138650
17,jamestown,42.097,-79.2353,4.73,60,100,4.63,US,1678138511
18,ilam,26.9167,87.9167,14.21,55,2,2.5,NP,1678138651
19,pevek,69.7008,170.3133,-34.63,96,30,1.25,RU,1678138652
20,avarua,-21.2078,-159.775,31.03,74,40,9.26,CK,1678138652
21,damghan,36.1683,54.348,14.86,28,41,1.72,IR,1678138652
22,saint-philippe,-21.3585,55.7679,25.77,87,97,4.38,RE,1678138653
23,tiksi,71.6872,128.8694,-23.55,98,100,2.31,RU,1678138653
24,cape town,-33.9258,18.4232,18.95,76,20,9.77,ZA,1678138591
25,mar del plata,-38.0023,-57.5575,30.46,73,20,5.14,AR,1678138653
26,arraial do cabo,-22.9661,-42.0278,25.98,78,40,5.14,BR,1678138654
27,port alfred,-33.5906,26.891,18.99,93,49,1.79,ZA,1678138654
28,olafsvik,64.8945,-23.7142,-2.97,59,91,5.09,IS,1678138654
29,richards bay,-28.783,32.0377,23.15,91,100,1.33,ZA,1678138655
30,mao,39.8885,4.2658,9.31,100,0,1.54,ES,1678138655
31,punta arenas,-53.15,-70.9167,10.06,57,40,10.29,CL,1678138578
32,honningsvag,70.9821,25.9704,-8.14,67,0,8.75,NO,1678138655
33,veshenskaya,49.6303,41.7334,-1.4,63,56,2.97,RU,1678138656
34,bathsheba,13.2167,-59.5167,27.34,69,40,7.2,BB,1678138656
35,yellowknife,62.456,-114.3525,-22.47,77,20,5.66,CA,1678138365
36,ushuaia,-54.8,-68.3,11.79,71,40,6.17,AR,1678138480
37,boralday,43.3578,76.8594,4.92,93,75,2.0,KZ,1678138656
38,hermanus,-34.4187,19.2345,18.78,79,33,6.57,ZA,1678138657
39,angoram,-4.0625,144.0661,23.51,99,100,0.79,PG,1678138657
40,cabo san lucas,22.8909,-109.9124,27.01,38,0,3.6,MX,1678138477
41,pisco,-13.7,-76.2167,28.03,57,0,8.23,PE,1678138657
42,kaitangata,-46.2817,169.8464,14.32,62,100,1.15,NZ,1678138658
43,kapaa,22.0752,-159.319,25.99,74,20,4.12,US,1678138658
44,chokurdakh,70.6333,147.9167,-43.55,100,90,1.08,RU,1678138658
45,kodiak,57.79,-152.4072,2.73,70,0,1.54,US,1678138496
46,severo-kurilsk,50.6789,156.125,0.23,90,100,4.68,RU,1678138659
47,sobolevo,54.4299,31.8996,-8.46,88,84,3.61,RU,1678138659
48,kutum,14.2,24.6667,22.96,18,15,5.04,SD,1678138659
49,qaanaaq,77.484,-69.3632,-9.41,88,85,3.07,GL,1678138659
50,kavaratti,10.5669,72.642,27.43,65,83,1.15,IN,1678138660
51,hudson bay,52.85,-102.3842,-11.37,75,97,1.7,CA,1678138660
52,grand island,40.925,-98.342,2.97,65,100,5.66,US,1678138406
53,chickasha,35.0526,-97.9364,20.1,42,0,3.6,US,1678138661
54,grand gaube,-20.0064,57.6608,25.22,87,100,0.89,MU,1678138661
55,tual,-5.6667,132.75,27.94,80,100,7.75,ID,1678138661
56,bull savanna,17.8868,-77.5902,25.47,69,36,5.52,JM,1678138662
57,hithadhoo,-0.6,73.0833,27.56,69,1,0.99,MV,1678138662
58,norman wells,65.282,-126.8329,-22.98,64,75,1.54,CA,1678138662
59,carnarvon,-24.8667,113.6333,24.82,71,0,8.34,AU,1678138663
60,marondera,-18.1853,31.5519,15.01,90,36,1.52,ZW,1678138663
61,mataura,-46.1927,168.8643,13.04,53,100,1.47,NZ,1678138663
62,igarka,67.4667,86.5833,-23.68,93,100,3.89,RU,1678138663
63,ilulissat,69.2167,-51.1,-4.99,74,0,1.03,GL,1678138664
64,grandview,38.8858,-94.533,15.42,50,0,6.69,US,1678138436
65,dunedin,-45.8742,170.5036,16.56,70,100,2.24,NZ,1678138609
66,bodden town,19.2833,-81.25,28.0,68,20,5.66,KY,1678138664
67,carmen,18.6333,-91.8333,32.02,33,20,3.09,MX,1678138664
68,klaksvik,62.2266,-6.589,-1.49,60,100,13.23,FO,1678138371
69,tabas,33.5959,56.9244,17.12,23,2,2.06,IR,1678138665
70,alta floresta,-9.8756,-56.0861,24.23,94,96,0.73,BR,1678138665
71,brooks,50.5834,-111.8851,-9.01,69,100,2.06,CA,1678138665
72,rikitea,-23.1203,-134.9692,26.85,78,100,10.16,PF,1678138666
73,mana,5.6592,-53.7767,25.21,84,100,5.14,GF,1678138666
74,saldanha,-33.0117,17.9442,19.03,76,37,6.49,ZA,1678138666
75,cherskiy,68.75,161.3,-36.37,97,28,1.45,RU,1678138667
76,onega,63.9061,38.1404,-16.79,99,71,2.93,RU,1678138667
77,wum,6.3833,10.0667,23.04,64,100,1.41,CM,1678138667
78,zhob,31.3411,69.4481,14.01,48,3,0.99,PK,1678138667
79,bulawayo,-20.15,28.5833,20.41,66,8,4.43,ZW,1678138572
80,dikson,73.5069,80.5464,-26.83,96,100,5.35,RU,1678138668
81,vardo,70.3705,31.1107,-10.01,67,75,7.72,NO,1678138668
82,heishan,41.6892,122.1128,3.2,74,22,3.9,CN,1678138668
83,camocim,-2.9022,-40.8411,25.77,86,71,5.83,BR,1678138669
84,fairbanks,64.8378,-147.7164,-1.77,68,100,0.0,US,1678138500
85,strezhevoy,60.7333,77.5889,-6.12,96,100,3.31,RU,1678138669
86,dayong,25.0209,118.2898,11.39,52,0,1.36,CN,1678138669
87,castro,-24.7911,-50.0119,18.4,91,95,1.85,BR,1678138670
88,hobart,-42.8794,147.3294,14.92,65,40,7.2,AU,1678138429
89,hasaki,35.7333,140.8333,2.22,77,0,3.08,JP,1678138670
90,iqaluit,63.7506,-68.5145,-3.5,100,75,5.66,CA,1678138670
91,bredasdorp,-34.5322,20.0403,17.33,76,34,3.97,ZA,1678138671
92,silver city,32.7701,-108.2803,17.17,24,100,5.81,US,1678138671
93,asha,54.9973,57.2722,-6.01,98,100,1.34,RU,1678138671
94,barrow,71.2906,-156.7887,-10.99,85,75,9.26,US,1678138672
95,tuktoyaktuk,69.4541,-133.0374,-29.0,76,40,3.6,CA,1678138672
96,khovu-aksy,51.1333,93.6,-10.1,90,79,1.99,RU,1678138672
97,westport,41.1415,-73.3579,11.21,24,0,7.72,US,1678138615
98,comodoro rivadavia,-45.8667,-67.5,19.92,32,75,11.83,AR,1678138654
99,sembe,1.6481,14.5806,27.25,56,88,2.2,CG,1678138672
100,pangnirtung,66.1451,-65.7125,-3.0,86,0,0.0,CA,1678138673
101,lozuvatka,48.0571,33.2858,3.01,87,100,3.12,UA,1678138673
102,rantepao,-2.9701,119.8978,17.67,93,90,1.37,ID,1678138673
103,igrim,63.1906,64.4162,-19.74,99,89,1.58,RU,1678138674
104,mahibadhoo,3.7833,72.9667,27.7,73,100,5.1,MV,1678138674
105,sabzevar,36.2126,57.6819,15.11,33,1,2.5,IR,1678138674
106,altamont,42.2068,-121.7372,0.99,77,100,7.2,US,1678138675
107,amapa,1.0,-52.0,23.08,98,100,2.08,BR,1678138675
108,chara,56.9064,118.2631,-23.61,74,24,0.72,RU,1678138620
109,kaili,-3.4626,120.2147,18.19,91,100,1.63,ID,1678138675
110,luderitz,-26.6481,15.1594,16.88,81,0,9.59,NA,1678138675
111,necochea,-38.5473,-58.7368,34.86,26,79,5.41,AR,1678138676
112,nome,64.5011,-165.4064,0.65,100,100,6.69,US,1678138676
113,sitka,57.0531,-135.33,0.94,25,0,3.6,US,1678138676
114,kerema,-7.9631,145.7785,26.18,78,95,1.38,PG,1678138677
115,new norfolk,-42.7826,147.0587,14.72,66,62,2.68,AU,1678138677
116,castleford,53.7259,-1.3626,4.81,79,100,1.29,GB,1678138677
117,cockburn town,21.4612,-71.1419,24.71,67,7,5.33,TC,1678138678
118,atuona,-9.8,-139.0333,26.67,78,11,5.65,PF,1678138678
119,roma,43.2128,-75.4557,4.08,30,20,3.09,US,1678138563
120,general roca,-39.0333,-67.5833,34.79,9,33,14.03,AR,1678138678
121,provideniya,64.3833,-173.3,-5.94,86,100,0.0,RU,1678138678
122,bolgatanga,10.7856,-0.8514,31.49,12,11,3.04,GH,1678138679
123,araouane,18.9048,-3.5265,25.07,10,100,3.45,ML,1678138679
124,sao filipe,14.8961,-24.4956,22.78,74,83,2.42,CV,1678138679
125,shingu,33.7333,135.9833,7.77,59,0,2.82,JP,1678138680
126,hofn,64.2539,-15.2082,-5.04,58,67,9.03,IS,1678138680
127,mufulira,-12.5498,28.2407,17.37,97,95,0.7,ZM,1678138680
128,sept-iles,50.2001,-66.3821,7.24,71,100,4.63,CA,1678138681
129,whitianga,-36.8333,175.7,19.69,67,1,1.26,NZ,1678138650
130,east london,-33.0153,27.9116,21.29,79,83,6.03,ZA,1678138681
131,matara,5.9485,80.5353,23.13,91,13,3.89,LK,1678138681
132,nikolskoye,59.7035,30.7861,-5.06,98,91,1.61,RU,1678138682
133,bacolod,10.6667,122.95,24.39,86,55,6.09,PH,1678138682
134,mount gambier,-37.8333,140.7667,13.58,66,94,5.27,AU,1678138540
135,thunder bay,48.4001,-89.3168,3.99,56,75,3.09,CA,1678138683
136,bandarbeyla,9.4942,50.8122,24.82,77,6,6.28,SO,1678138685
137,san patricio,28.017,-97.5169,30.97,55,89,6.6,US,1678138685
138,altona,53.55,9.9333,2.3,77,100,5.14,DE,1678138685
139,nantucket,41.2835,-70.0995,9.08,36,0,9.77,US,1678138585
140,novobirilyussy,56.9514,90.6661,-2.95,90,100,6.26,RU,1678138686
141,basco,20.4487,121.9702,21.63,57,65,8.45,PH,1678138686
142,makakilo city,21.3469,-158.0858,25.18,81,75,6.17,US,1678138686
143,ribeira grande,38.5167,-28.7,17.22,94,75,12.07,PT,1678138687
144,souillac,-20.5167,57.5167,25.21,94,75,0.0,MU,1678138687
145,ancud,-41.8697,-73.8203,13.05,86,100,0.92,CL,1678138688
146,namibe,-15.1961,12.1522,21.8,77,20,1.91,AO,1678138688
147,krasnoselkup,65.7,82.4667,-13.68,95,100,5.14,RU,1678138688
148,mahebourg,-20.4081,57.7,25.16,94,75,0.0,MU,1678138688
149,ambon,-3.6954,128.1814,25.13,15,40,1.54,ID,1678138689
150,biala podlaska,52.0324,23.1165,0.07,98,100,4.83,PL,1678138689
151,kruisfontein,-34.0033,24.7314,17.16,86,84,1.95,ZA,1678138690
152,changji,44.0167,87.3167,1.44,80,0,2.0,CN,1678138690
153,hokitika,-42.7167,170.9667,16.43,60,83,0.75,NZ,1678138690
154,spirovo,57.419,34.9766,-10.76,97,76,2.29,RU,1678138691
155,bilma,18.6853,12.9164,28.02,10,8,2.98,NE,1678138691
156,severnyy,50.677,36.5532,-3.98,92,0,3.13,RU,1678138692
157,castelo do piaui,-5.3222,-41.5525,27.61,58,93,1.08,BR,1678138692
158,bladel,51.3683,5.2208,4.97,90,75,5.66,NL,1678138692
159,hambantota,6.1241,81.1185,24.19,100,0,2.06,LK,1678138693
160,qaqortoq,60.7167,-46.0333,-4.13,97,59,1.85,GL,1678138693
161,deputatskiy,69.3,139.9,-25.19,98,100,1.26,RU,1678138693
162,laupheim,48.2333,9.8833,2.6,72,75,1.54,DE,1678138694
163,uriangato,20.15,-101.1833,30.17,10,74,2.98,MX,1678138694
164,isangel,-19.55,169.2667,26.86,72,17,6.77,VU,1678138451
165,linxia,35.6003,103.2064,5.25,43,100,0.74,CN,1678138694
166,port blair,11.6667,92.75,25.22,76,0,2.62,IN,1678138695
167,seidu,9.0167,-10.6,23.04,79,100,1.45,SL,1678138695
168,butaritari,3.0707,172.7902,27.0,78,81,5.15,KI,1678138695
169,hammerfest,70.6634,23.6821,-11.75,85,0,1.03,NO,1678138696
170,vrede,-27.4257,29.1659,12.4,78,4,2.91,ZA,1678138456
171,hualmay,-11.0964,-77.6139,24.63,71,82,4.31,PE,1678138696
172,ballina,-28.8667,153.5667,24.88,81,0,5.01,AU,1678138697
173,dandong,40.1292,124.3947,2.59,87,3,1.08,CN,1678138697
174,cranbrook,49.4999,-115.7688,-1.09,40,40,1.03,CA,1678138626
175,lipin bor,60.2622,37.9763,-10.23,99,99,1.84,RU,1678138697
176,aklavik,68.2191,-135.0107,-25.0,77,0,1.54,CA,1678138698
177,betioky,-23.7167,44.3833,22.9,92,100,7.3,MG,1678138698
178,marystown,47.1666,-55.1483,-2.8,85,89,3.08,CA,1678138698
179,pitsunda,43.1592,40.3378,3.1,82,93,1.63,GE,1678138699
180,trelaze,47.45,-0.4667,5.59,74,0,2.06,FR,1678138699
181,alappuzha,9.49,76.3264,25.03,80,66,1.76,IN,1678138699
182,aginskoye,51.1,114.53,-7.06,94,100,2.32,RU,1678138700
183,gurupa,-1.405,-51.64,24.29,97,83,2.13,BR,1678138700
184,roald,62.5833,6.1333,-0.69,93,75,2.06,NO,1678138701
185,doha,25.2867,51.5333,24.99,34,0,2.06,QA,1678138701
186,sao joao da barra,-21.6403,-41.0511,27.05,88,100,7.65,BR,1678138702
187,orsha,54.5153,30.4053,-7.32,88,93,3.77,BY,1678138702
188,kimbe,-5.5502,150.1429,25.93,89,97,0.69,PG,1678138702
189,naryan-mar,67.6713,53.087,-28.05,96,86,1.42,RU,1678138703
190,plettenberg bay,-34.0527,23.3716,17.3,86,72,2.16,ZA,1678138703
191,kihei,20.785,-156.4656,26.65,76,20,8.75,US,1678138703
192,owo,7.1962,5.5868,23.15,83,100,3.03,NG,1678138703
193,baykit,61.67,96.37,-13.01,97,100,1.56,RU,1678138704
194,ponta do sol,32.6667,-17.1,20.0,92,87,2.81,PT,1678138704
195,lavrentiya,65.5833,-171.0,-7.65,94,100,4.19,RU,1678138704
196,shache,38.4167,77.2406,9.27,37,54,2.05,CN,1678138705
197,salair,54.2312,85.7972,-1.26,90,100,8.32,RU,1678138705
198,columbine,39.5878,-105.0694,10.64,36,40,6.26,US,1678138559
199,longyearbyen,78.2186,15.6401,-15.09,47,40,8.75,SJ,1678138706
200,bitung,1.4451,125.1824,24.47,86,56,3.3,ID,1678138706
201,lasa,46.6166,10.7002,3.49,92,96,1.25,IT,1678138707
202,dingle,10.9995,122.6711,22.32,91,4,3.69,PH,1678138707
203,laguna,38.421,-121.4238,12.84,59,75,4.63,US,1678138707
204,khatanga,71.9667,102.5,-30.1,100,99,1.97,RU,1678138708
205,port elizabeth,-33.918,25.5701,18.51,91,75,2.57,ZA,1678138708
206,geraldton,-28.7667,114.6,14.23,88,0,3.09,AU,1678138709
207,malinyi,-8.9333,36.1333,22.71,83,100,0.7,TZ,1678138709
208,adrar,20.5022,-10.0711,24.82,10,100,4.06,MR,1678138709
209,chuy,-33.6971,-53.4616,22.24,75,71,4.4,UY,1678138710
210,halifax,44.6453,-63.5724,0.19,88,75,7.2,CA,1678138710
211,ambajogai,18.7333,76.3833,22.37,45,57,4.36,IN,1678138711
212,la rioja,42.25,-2.5,0.88,84,100,2.47,ES,1678138711
213,puerto escondido,15.85,-97.0667,30.46,70,40,6.17,MX,1678138712
214,hamilton,39.1834,-84.5333,23.97,40,0,10.29,US,1678138450
215,coquimbo,-29.9533,-71.3436,21.85,68,20,5.66,CL,1678138712
216,verkhoyansk,67.5447,133.385,-32.67,100,95,0.75,RU,1678138712
217,chunhuhub,19.55,-88.6833,33.98,29,38,3.83,MX,1678138713
218,okitipupa,6.5047,4.7839,23.87,92,100,2.07,NG,1678138713
219,nago,26.5881,127.9761,13.47,65,3,3.19,JP,1678138713
220,auki,-8.7676,160.7034,27.07,84,100,3.37,SB,1678138714
221,saskylakh,71.9167,114.0833,-27.41,99,100,1.76,RU,1678138714
222,vanimo,-2.6741,141.3028,24.63,87,100,1.55,PG,1678138714
223,grand forks,47.9417,-97.4337,-12.9,61,0,11.83,US,1678138656
224,salalah,17.0151,54.0924,25.05,33,0,1.03,OM,1678138715
225,tasiilaq,65.6145,-37.6368,-5.91,78,100,2.17,GL,1678138715
226,catia la mar,10.6038,-67.0303,31.11,79,40,3.09,VE,1678138715
227,kamiiso,41.8167,140.65,7.21,87,75,6.17,JP,1678138715
228,port hedland,-20.3167,118.5667,28.03,69,6,4.12,AU,1678138716
229,progreso,21.2833,-89.6667,34.5,67,55,7.78,MX,1678138653
230,andenes,69.3143,16.1194,-3.93,68,75,7.72,NO,1678138716
231,saint-augustin,51.226,-58.6502,1.11,99,100,5.41,CA,1678138716
232,taoudenni,22.6783,-3.9836,27.26,11,98,3.76,ML,1678138717
233,ayacucho,-13.1583,-74.2239,22.92,38,75,3.09,PE,1678138717
234,madang,-5.2246,145.7966,24.65,93,100,1.85,PG,1678138717
235,les cayes,18.2,-73.75,26.39,65,70,1.93,HT,1678138718
236,takoradi,4.8845,-1.7554,26.77,84,70,5.37,GH,1678138718
237,talnakh,69.4865,88.3972,-21.0,96,99,2.88,RU,1678138718
238,ko samui,9.5357,99.9357,26.13,72,10,3.66,TH,1678138718
239,kahului,20.8947,-156.47,26.65,75,20,8.75,US,1678138719
240,sechura,-5.5569,-80.8222,26.62,68,100,8.81,PE,1678138719
241,upernavik,72.7868,-56.1549,-9.55,88,30,3.12,GL,1678138719
242,gari,59.4307,62.3497,-21.22,100,86,0.94,RU,1678138720
243,mareeba,-17.0,145.4333,23.02,96,88,1.3,AU,1678138720
244,mbanza-ngungu,-5.25,14.8667,21.7,95,100,1.85,CD,1678138720
245,balabac,7.9868,117.0645,26.09,77,19,6.42,PH,1678138448
246,danielskuil,-28.1887,23.5395,17.92,30,1,3.14,ZA,1678138720
247,karratha,-20.7377,116.8463,28.76,76,5,1.93,AU,1678138721
248,mayo,38.8876,-76.5119,16.4,49,0,3.13,US,1678138721
249,nurota,40.5614,65.6886,17.18,45,75,8.48,UZ,1678138721
250,mayor pablo lagerenza,-19.9309,-60.7718,36.06,33,29,3.71,PY,1678138722
251,yazman,29.1212,71.7446,22.22,30,12,2.66,PK,1678138722
252,saint-georges,12.0564,-61.7485,27.82,69,20,8.23,GD,1678138722
253,torbay,47.6666,-52.7314,-0.79,87,75,3.09,CA,1678138563
254,aden,12.7794,45.0367,25.23,74,0,7.01,YE,1678138723
255,petropavlovsk-kamchatskiy,53.0452,158.6483,-8.67,86,75,2.0,RU,1678138723
256,dauriya,49.9333,116.8667,-8.33,90,100,5.36,RU,1678138723
257,acarau,-2.8856,-40.12,26.86,76,98,6.27,BR,1678138723
258,nelson bay,-32.7167,152.15,27.22,68,15,2.68,AU,1678138724
259,mehamn,71.0357,27.8492,-10.05,73,0,6.17,NO,1678138724
260,trat,12.5,102.5,22.71,83,0,1.28,TH,1678138724
261,prince rupert,54.3161,-130.3201,0.83,47,0,2.06,CA,1678138725
262,baracoa,20.3467,-74.4958,25.69,73,51,3.99,CU,1678138725
263,sturgis,41.7992,-85.4192,5.14,95,100,3.6,US,1678138507
264,ritchie,-29.038,24.6028,20.56,24,3,4.29,ZA,1678138725
265,viedma,-40.8135,-62.9967,35.09,7,46,5.96,AR,1678138726
266,kalofer,42.6167,24.9833,3.91,80,31,0.45,BG,1678138726
267,richmond,37.5538,-77.4603,19.81,38,75,5.14,US,1678138726
268,kem,64.9555,34.5793,-15.89,99,89,2.1,RU,1678138726
269,flin flon,54.7682,-101.865,-16.09,47,0,4.12,CA,1678138727
270,narsaq,60.9167,-46.05,6.12,84,20,1.89,GL,1678138727
271,husavik,66.0449,-17.3389,-5.47,67,100,4.86,IS,1678138727
272,peniche,39.3558,-9.3811,13.95,90,100,6.81,PT,1678138728
273,qasigiannguit,68.8193,-51.1922,-4.86,80,9,1.66,GL,1678138467
274,mandapam,9.2833,79.1167,26.62,73,11,7.05,IN,1678138728
275,linxi,39.7,118.4333,4.84,56,0,1.87,CN,1678138728
276,praia,14.9215,-23.5087,23.3,60,20,6.17,CV,1678138729
277,airai,-8.9266,125.4092,14.84,89,96,0.57,TL,1678138729
278,mastic beach,40.7668,-72.8521,12.11,30,0,5.66,US,1678138505
279,paamiut,61.994,-49.6678,-2.6,80,1,2.99,GL,1678138729
280,ariquemes,-9.9133,-63.0408,25.12,95,91,1.33,BR,1678138730
281,teahupoo,-17.8333,-149.2667,23.98,79,100,8.01,PF,1678138730
282,coos bay,43.3665,-124.2179,8.51,81,100,3.6,US,1678138575
283,magadan,59.5667,150.8,-18.01,97,100,1.56,RU,1678138730
284,enshi,30.3,109.4833,13.53,93,100,0.11,CN,1678138731
285,champerico,14.3,-91.9167,35.3,63,16,5.64,GT,1678138731
286,menongue,-14.6585,17.691,18.0,89,71,2.21,AO,1678138731
287,pafos,34.7667,32.4167,15.88,63,40,4.63,CY,1678138732
288,sao jose da coroa grande,-8.8978,-35.1478,26.72,73,97,4.5,BR,1678138732
289,rocha,-34.4833,-54.3333,21.71,69,64,5.17,UY,1678138706
290,noumea,-22.2763,166.4572,27.22,99,9,4.05,NC,1678138469
291,parnu-jaagupi,58.6105,24.5069,-4.6,96,99,1.36,EE,1678138732
292,salekhard,66.53,66.6019,-30.34,96,27,1.84,RU,1678138733
293,bermeo,43.4209,-2.7215,9.83,82,85,3.95,ES,1678138733
294,genhe,50.7833,121.5167,-12.9,96,100,1.09,CN,1678138733
295,taos,36.4072,-105.5731,13.22,12,0,6.69,US,1678138466
296,saint anthony,45.0205,-93.218,3.14,81,100,7.2,US,1678138734
297,kaka,37.3482,59.6143,19.92,23,85,3.74,TM,1678138734
298,krasnorechenskiy,44.6265,135.3532,-4.93,96,17,1.77,RU,1678138734
299,marienburg,54.0359,19.0266,-2.29,85,91,2.48,PL,1678138734
300,port keats,-14.25,129.55,27.3,85,93,4.41,AU,1678138735
301,beringovskiy,63.05,179.3167,-23.25,78,22,2.38,RU,1678138734
302,gelemso,8.8167,40.5167,17.17,43,33,1.19,ET,1678138735
303,kieta,-6.2167,155.6333,28.26,72,84,0.52,PG,1678138735
304,puerto del rosario,28.5004,-13.8627,18.86,77,0,3.09,ES,1678138736
305,lucapa,-8.4192,20.7447,20.75,86,64,0.35,AO,1678138736
306,humberto de campos,-2.5983,-43.4611,25.1,90,98,2.67,BR,1678138736
307,sheltozero,61.3667,35.3667,-10.66,99,99,1.97,RU,1678138737
308,bonavista,48.6499,-53.1147,-3.19,94,92,3.52,CA,1678138737
309,yar-sale,66.8333,70.8333,-20.82,93,100,4.88,RU,1678138737
310,pandhana,21.7,76.2167,25.71,28,100,2.87,IN,1678138737
311,aasiaat,68.7098,-52.8699,-11.24,96,17,0.75,GL,1678138738
312,shimoda,34.6667,138.95,6.72,68,0,2.79,JP,1678138738
313,ulladulla,-35.35,150.4667,23.52,38,28,3.58,AU,1678138738
314,mildura,-34.2,142.15,13.37,74,0,6.92,AU,1678138739
315,saint george,37.1041,-113.5841,11.81,39,75,4.63,US,1678138524
316,bocas del toro,9.3333,-82.25,26.85,72,100,3.58,PA,1678138739
317,tautira,-17.7333,-149.15,25.79,77,100,7.49,PF,1678138739
318,biak,-0.9131,122.8766,24.65,79,100,1.26,ID,1678138740
319,lesnyye polyany,55.9667,37.8667,-4.36,97,65,2.39,RU,1678138740
320,vila velha,-20.3297,-40.2925,27.19,84,20,7.2,BR,1678138740
321,ahipara,-35.1667,173.1667,20.74,67,8,0.18,NZ,1678138740
322,dmitriyevka,54.75,55.3333,-5.25,96,100,2.95,RU,1678138741
323,meihekou,42.5272,125.6753,1.77,85,19,3.23,CN,1678138741
324,nouadhibou,20.931,-17.0347,22.99,53,3,5.66,MR,1678138721
325,claveria,18.6074,121.0832,19.34,80,39,5.61,PH,1678138741
326,mnogovershinnyy,53.9353,139.9242,-10.99,92,100,1.51,RU,1678138451
327,san quintin,30.4833,-115.95,15.11,61,100,8.95,MX,1678138742
328,guarapari,-20.6667,-40.4975,27.16,85,100,6.24,BR,1678138742
329,okha,53.5739,142.9478,-16.14,99,100,2.2,RU,1678138743
330,kamina,-8.7386,24.9906,18.36,95,100,0.45,CD,1678138743
331,rio verde de mato grosso,-18.9181,-54.8442,26.53,79,25,1.87,BR,1678138625
332,henties bay,-22.116,14.2845,17.06,88,50,3.95,NA,1678138744
333,alihe,50.5667,123.7167,-11.4,95,100,0.77,CN,1678138744
334,aguimes,27.9054,-15.4461,17.35,77,20,1.03,ES,1678138745
335,yerbogachen,61.2767,108.0108,-31.24,100,100,1.31,RU,1678138745
336,gallup,35.5281,-108.7426,13.91,16,0,10.8,US,1678138745
337,san carlos,9.6612,-68.5827,32.67,39,99,2.42,VE,1678138549
338,lugovoy,42.9472,72.7644,8.84,52,54,3.98,KZ,1678138746
339,svetlogorsk,52.6333,29.7333,-1.9,69,67,3.22,BY,1678138746
340,bambanglipuro,-7.95,110.2833,23.72,90,45,1.7,ID,1678138746
341,quatre cocos,-20.2078,57.7625,25.06,85,98,1.08,MU,1678138747
342,leningradskiy,69.3833,178.4167,-32.0,96,11,1.62,RU,1678138747
343,kupang,-10.1667,123.5833,23.32,100,20,0.51,ID,1678138747
344,havelock,34.8791,-76.9013,19.98,44,40,3.6,US,1678138455
345,daru,-9.0763,143.2092,25.38,86,61,4.96,PG,1678138748
346,gasa,31.5,34.4667,15.19,66,29,3.68,PS,1678138748
347,juba,4.8517,31.5825,29.52,28,8,1.05,SS,1678138749
348,yulara,-25.2406,130.9889,20.4,32,0,4.68,AU,1678138749
349,tarpon springs,28.1461,-82.7568,28.94,73,0,6.17,US,1678138587
350,victor harbor,-35.5667,138.6167,14.27,59,95,6.97,AU,1678138749
351,aljezur,37.3191,-8.8033,13.43,93,100,3.22,PT,1678138750
352,santa rosa,14.3122,121.1114,22.99,83,0,3.68,PH,1678138750
353,great yarmouth,52.6083,1.7305,4.69,90,100,4.83,GB,1678138750
354,touros,-5.1989,-35.4608,26.67,77,99,6.13,BR,1678138751
355,port-gentil,-0.7193,8.7815,26.98,83,40,2.06,GA,1678138751
356,sidi ali,36.0998,0.4206,12.08,87,99,3.45,DZ,1678138751
357,chengde,40.9725,117.9361,4.46,36,0,0.78,CN,1678138753
358,koslan,63.4564,48.8989,-14.74,97,99,2.56,RU,1678138753
359,nazarovo,56.0064,90.3914,-3.31,79,100,6.73,RU,1678138511
360,nuuk,64.1835,-51.7216,4.34,45,20,2.06,GL,1678138598
361,kimberley,-28.7323,24.7623,19.83,56,2,3.09,ZA,1678138754
362,manaus,-3.1019,-60.025,27.27,74,75,2.57,BR,1678138755
363,novosergiyevka,52.0934,53.6528,-10.27,97,100,1.19,RU,1678138755
364,seymchan,62.8833,152.4333,-30.36,96,97,0.22,RU,1678138755
365,kalaleh,37.3807,55.4916,27.78,14,0,5.14,IR,1678138756
366,loralai,30.3705,68.598,14.09,43,10,2.3,PK,1678138756
367,badiraguato,25.3667,-107.5167,34.03,8,12,3.06,MX,1678138757
368,dali,25.7,100.1833,7.18,64,0,2.1,CN,1678138757
369,carbonia,39.1672,8.5222,8.53,87,47,1.53,IT,1678138757
370,lazaro cardenas,17.9583,-102.2,27.57,58,35,5.36,MX,1678138758
371,yagodnoye,62.55,149.6667,-30.86,95,100,1.22,RU,1678138758
372,jumla,29.2747,82.1838,3.9,54,15,2.34,NP,1678138724
373,anadyr,64.75,177.4833,-30.72,76,0,6.0,RU,1678138758
374,krivosheino,57.3431,83.9261,-1.41,89,98,7.42,RU,1678138759
375,hamois,50.3348,5.1512,3.6,88,100,6.29,BE,1678138759
376,luanda,-8.8368,13.2343,26.0,78,40,4.63,AO,1678138760
377,codrington,-38.2667,141.9667,13.7,67,93,7.49,AU,1678138760
378,oliveira dos brejinhos,-12.3169,-42.8961,28.5,42,90,0.69,BR,1678138760
379,maningrida,-12.0667,134.2667,24.42,90,100,5.06,AU,1678138760
380,omboue,-1.5746,9.2618,26.47,86,100,3.19,GA,1678138761
381,faanui,-16.4833,-151.75,25.29,81,100,5.73,PF,1678138761
382,hay river,60.8156,-115.7999,-14.02,47,20,3.6,CA,1678138761
383,mwene-ditu,-7.0,23.45,20.16,95,76,1.35,CD,1678138762
384,grindavik,63.8424,-22.4338,-3.74,58,0,7.2,IS,1678138762
385,guerrero negro,27.9769,-114.0611,16.94,59,100,9.01,MX,1678138562
386,asosa,10.0667,34.5333,25.4,22,81,1.29,ET,1678138763
387,redmond,47.674,-122.1215,11.31,64,96,3.13,US,1678138713
388,uromi,6.7,6.3333,22.82,81,100,2.43,NG,1678138763
389,ust-maya,60.4167,134.5333,-18.46,99,100,1.37,RU,1678138764
390,tyup,42.7276,78.3648,2.72,70,89,1.65,KG,1678138764
391,nanortalik,60.1432,-45.2371,-1.26,86,16,1.13,GL,1678138764
392,lundazi,-12.2929,33.1782,18.05,86,100,0.9,ZM,1678138765
393,olga,43.7444,135.2892,-2.17,89,3,2.37,RU,1678138765
394,puerto baquerizo moreno,-0.9,-89.6,27.55,78,75,1.03,EC,1678138765
395,phan thiet,10.9333,108.1,20.37,74,100,2.64,VN,1678138766
396,namatanai,-3.6667,152.4333,26.11,84,98,1.25,PG,1678138766
397,vestmannaeyjar,63.4427,-20.2734,-3.48,54,98,2.8,IS,1678138766
398,kontagora,10.3999,5.4695,33.12,27,83,3.09,NG,1678138767
399,tignere,7.3667,12.65,24.28,17,87,0.87,CM,1678138767
400,villa guerrero,18.8667,-99.65,28.79,24,56,2.61,MX,1678138768
401,raudeberg,61.9875,5.1352,-2.3,66,100,7.79,NO,1678138769
402,kirriemuir,56.674,-3.0034,0.52,77,85,2.67,GB,1678138769
403,victoria,22.2855,114.1577,18.51,60,5,1.34,HK,1678138543
404,matagami,49.7502,-77.6328,-4.94,58,0,8.75,CA,1678138770
405,brae,60.3964,-1.353,0.93,56,96,9.32,GB,1678138771
406,kiama,-34.6833,150.8667,24.1,48,70,0.89,AU,1678138771
407,meulaboh,4.1363,96.1285,23.87,89,12,1.4,ID,1678138771
408,kuruman,-27.4524,23.4325,19.44,32,25,3.46,ZA,1678138772
409,tateyama,34.9833,139.8667,11.26,70,1,1.49,JP,1678138773
410,zhanaozen,43.3,52.8,7.04,87,99,8.65,KZ,1678138773
411,paramonga,-10.6667,-77.8333,24.3,73,77,3.79,PE,1678138774
412,kununurra,-15.7667,128.7333,25.99,73,67,2.06,AU,1678138774
413,tupiza,-21.45,-65.7167,16.57,60,85,3.6,BO,1678138774
414,iwanai,42.9744,140.5089,3.03,93,88,1.82,JP,1678138775
415,sisimiut,66.9395,-53.6735,-2.62,70,81,3.01,GL,1678138775
416,bolshaya glushitsa,50.2406,43.5908,-4.11,84,16,1.68,RU,1678138775
417,susanville,40.4163,-120.653,0.45,68,100,1.79,US,1678138776
418,moshenskoye,58.5102,34.5911,-13.98,99,89,2.12,RU,1678138776
419,pavlivka,49.4414,28.4596,-0.06,78,98,3.27,UA,1678138776
420,safaga,26.7292,33.9365,21.54,41,100,9.72,EG,1678138777
421,luxor,25.6989,32.6421,21.03,32,0,2.06,EG,1678138777
422,luena,-11.7833,19.9167,18.14,95,91,0.57,AO,1678138777
423,lewisporte,49.2499,-55.0482,-2.16,93,100,2.69,CA,1678138777
424,bira,49.0,132.4667,-10.23,96,30,1.57,RU,1678138778
425,ocampo,21.65,-101.5,26.82,9,14,3.79,MX,1678138778
426,yongan,39.6957,113.6871,5.69,30,0,2.08,CN,1678138778
427,san carlos de bariloche,-41.1456,-71.3082,15.86,67,75,10.8,AR,1678138519
428,linden,6.0,-58.3,25.44,74,100,2.61,GY,1678138779
429,pak chong,14.708,101.4161,22.12,59,0,1.53,TH,1678138744
430,moose factory,51.2585,-80.6094,-5.0,45,0,4.63,CA,1678138779
431,nishihara,26.1842,127.7558,15.6,67,20,3.6,JP,1678138779
432,sabang,5.8933,95.3214,27.26,66,0,8.91,ID,1678138780
433,cururupu,-1.8283,-44.8683,24.23,96,98,1.71,BR,1678138780
434,sorata,-15.7667,-68.6333,11.5,84,97,3.32,BO,1678138780
435,aksu,41.1231,80.2644,8.02,42,29,2.23,CN,1678138781
436,santa maria,-29.6842,-53.8069,25.61,83,75,1.54,BR,1678138781
437,imbituba,-28.24,-48.6703,23.35,92,32,4.92,BR,1678138781
438,udachnyy,66.4167,112.4,-36.22,100,89,1.52,RU,1678138781
439,buala,-8.145,159.5921,27.62,81,97,2.45,SB,1678138782
440,raga,8.4596,25.678,28.36,28,14,1.57,SS,1678138782
441,puerto suarez,-18.95,-57.8,32.31,70,40,3.09,BO,1678138782
442,bondo,3.8146,23.6866,26.44,47,85,0.33,CD,1678138783
443,ortona,42.3496,14.4039,12.31,51,15,3.18,IT,1678138783
444,aku,6.7081,7.3167,25.01,82,100,3.3,NG,1678138783
445,kashi,39.4547,75.9797,10.56,32,20,1.0,CN,1678138784
446,berlevag,70.8578,29.0864,-10.03,57,83,4.63,NO,1678138784
447,gat,31.61,34.7642,14.67,76,60,2.77,IL,1678138680
448,bud,39.447,-86.1758,23.01,47,45,6.15,US,1678138784
449,abu samrah,35.3029,37.1841,10.66,72,2,7.03,SY,1678138785
450,aquiraz,-3.9014,-38.3911,28.43,86,100,5.58,BR,1678138550
451,montanha,-18.1269,-40.3633,25.95,75,82,5.65,BR,1678138785
452,katherine,-14.4667,132.2667,23.18,94,100,2.57,AU,1678138785
453,ulaangom,49.9811,92.0667,-13.18,80,95,1.44,MN,1678138785
454,asyut,27.181,31.1837,18.1,32,100,5.14,EG,1678138786
455,bereda,43.2686,-7.5406,11.34,100,73,0.25,ES,1678138786
456,pasighat,28.0667,95.3333,18.08,80,92,1.32,IN,1678138786
457,olot,42.181,2.4901,6.55,88,24,0.45,ES,1678138501
458,najran,17.4924,44.1277,20.36,30,0,1.37,SA,1678138724
459,zapolyarnyy,69.4154,30.8136,-13.4,100,98,2.04,RU,1678138787
460,jacksonville,30.3322,-81.6556,30.23,59,40,4.63,US,1678138567
461,darhan,49.4867,105.9228,-5.4,84,77,1.55,MN,1678138787
462,ha giang,22.8333,104.9833,19.23,89,100,1.01,VN,1678138787
463,opuwo,-18.0607,13.84,20.09,44,23,2.32,NA,1678138788
464,tura,25.5198,90.2201,18.51,30,0,1.19,IN,1678138788
465,kerugoya,-0.4989,37.2803,16.06,63,44,2.34,KE,1678138737
466,kulhudhuffushi,6.6221,73.07,27.11,74,96,6.46,MV,1678138788
467,lompoc,34.6391,-120.4579,15.43,70,75,6.26,US,1678138789
468,barranca,-10.75,-77.7667,24.2,69,72,3.52,PE,1678138789
469,kantorjanosi,47.9333,22.15,4.47,76,100,3.87,HU,1678138789
470,ostrovnoy,68.0531,39.5131,-12.21,89,100,4.66,RU,1678138790
471,turayf,31.6725,38.6637,11.14,54,0,5.14,SA,1678138790
472,umm lajj,25.0213,37.2685,24.17,74,99,3.01,SA,1678138790
473,hobyo,5.3505,48.5268,25.65,78,18,7.03,SO,1678138790
474,riacho de santana,-13.6092,-42.9389,28.88,37,89,1.24,BR,1678138791
475,cidreira,-30.1811,-50.2056,23.7,91,99,6.37,BR,1678138791
476,ape,57.5393,26.6929,-5.16,95,100,3.58,LV,1678138791
477,svetlaya,46.5389,138.3297,-0.64,91,75,0.78,RU,1678138792
478,waingapu,-9.6567,120.2641,24.65,85,100,2.57,ID,1678138792
479,srednekolymsk,67.45,153.6833,-37.54,100,53,0.81,RU,1678138792
480,clyde river,70.4692,-68.5914,-10.87,92,20,2.06,CA,1678138792
481,miragoane,18.4423,-73.0876,26.82,67,18,2.8,HT,1678138793
482,bay roberts,47.5999,-53.2648,-0.37,83,97,0.89,CA,1678138793
483,bowen,-20.0167,148.2333,26.02,79,87,4.88,AU,1678138793
484,gravelbourg,49.8834,-106.5512,-7.85,83,98,6.16,CA,1678138794
485,zabol,32.25,67.25,8.84,57,2,0.79,AF,1678138794
486,tuatapere,-46.1333,167.6833,16.73,59,85,2.6,NZ,1678138794
487,semnan,35.5729,53.3971,15.08,28,92,0.36,IR,1678138795
488,ban bung,18.3081,100.7044,21.08,60,0,0.76,TH,1678138795
489,muros,42.7762,-9.0603,13.94,91,99,3.36,ES,1678138733
490,yeppoon,-23.1333,150.7333,22.88,67,21,2.66,AU,1678138795
491,ternate,0.8,127.4,26.04,82,35,3.25,ID,1678138796
492,ratnagiri,16.9833,73.3,25.13,48,40,2.32,IN,1678138796
493,samarai,-10.6167,150.6667,27.26,76,53,2.48,PG,1678138796
494,chauk,20.8833,94.8167,22.68,59,0,1.89,MM,1678138797
495,kaeo,-35.1,173.7833,20.74,91,73,2.03,NZ,1678138798
496,kushiro,42.975,144.3747,1.58,84,46,3.88,JP,1678138798
497,bambous virieux,-20.3428,57.7575,25.14,94,75,0.0,MU,1678138798
498,traverse city,44.7631,-85.6206,3.11,82,100,3.09,US,1678138799
499,nandu,22.8525,110.8233,16.57,73,1,0.99,CN,1678138799
500,poso,-1.3959,120.7524,24.77,83,91,1.52,ID,1678138799
501,gamba,-2.65,10.0,25.99,86,100,2.52,GA,1678138800
502,sangar,63.9242,127.4739,-26.28,99,100,0.99,RU,1678138800
503,kokkola,63.8385,23.1307,-12.82,89,100,1.03,FI,1678138801
504,tarakan,3.3,117.6333,24.72,94,40,1.54,ID,1678138801
505,beaune,47.0833,4.75,0.8,85,83,1.69,FR,1678138801
506,catio,11.2833,-15.25,24.67,64,100,4.1,GW,1678138802
507,ayorou,14.7308,0.9174,28.82,11,3,5.3,NE,1678138802
508,cayenne,4.9333,-52.3333,28.02,74,75,4.63,GF,1678138696
509,katangli,51.7102,143.2326,-11.92,97,100,2.8,RU,1678138803
510,palu,-0.8917,119.8707,23.57,96,95,0.8,ID,1678138804
511,gunjur,13.2019,-16.7339,23.04,78,0,1.03,GM,1678138805
512,tomatlan,19.9333,-105.25,28.26,50,51,3.72,MX,1678138805
513,bejar,40.3864,-5.7634,7.54,97,100,2.02,ES,1678138806
514,visby,57.6409,18.296,-4.41,80,40,2.57,SE,1678138806
515,lyubech,51.7026,30.6569,-2.38,76,86,3.34,UA,1678138807
516,yashkul,46.1711,45.3435,2.81,69,100,6.79,RU,1678138807
517,pahrump,36.2083,-115.9839,12.13,33,57,5.81,US,1678138808
518,manacapuru,-3.2997,-60.6206,25.59,91,92,1.48,BR,1678138808
519,yarmouth,41.7057,-70.2286,8.26,40,0,12.52,US,1678138547
520,visnes,59.3556,5.2242,-0.99,63,82,2.06,NO,1678138809
521,arlit,18.7369,7.3853,27.42,9,58,5.55,NE,1678138810
522,marawi,7.9986,124.2928,18.8,97,74,0.67,PH,1678138810
523,el reten,10.6114,-74.2682,33.45,58,34,4.92,CO,1678138810
524,shumskiy,54.8318,99.1328,-8.9,92,85,1.97,RU,1678138811
525,bageshwar,29.85,79.7667,10.34,38,0,1.54,IN,1678138812
526,pacific grove,36.6177,-121.9166,12.15,67,75,3.6,US,1678138812
527,harper,4.375,-7.7169,26.77,86,69,3.5,LR,1678138812
528,kloulklubed,7.0419,134.2556,23.28,78,100,5.7,PW,1678138813
529,mangrol,21.1167,70.1167,23.99,52,0,0.55,IN,1678138813
530,fortuna,40.5982,-124.1573,7.19,96,75,2.57,US,1678138813
531,verin,41.9415,-7.4381,10.31,99,100,1.48,ES,1678138814
532,hohhot,40.8106,111.6522,1.62,68,0,1.0,CN,1678138814
533,palauig,15.435,119.9045,22.52,73,0,2.71,PH,1678138814
534,mogzon,51.7435,111.9606,-12.73,97,99,1.51,RU,1678138815
535,bonthe,7.5264,-12.505,25.33,84,90,2.67,SL,1678138815
536,verkhnevilyuysk,63.4453,120.3167,-26.25,99,99,2.63,RU,1678138815
537,bolobo,-2.1667,16.2333,24.26,91,85,0.92,CD,1678138816
538,onalaska,43.8844,-91.2351,2.94,92,100,5.14,US,1678138816
539,yinchuan,38.4681,106.2731,8.18,23,59,1.29,CN,1678138817
540,san cristobal,7.7669,-72.225,26.74,55,78,0.74,VE,1678138817
541,perivolion,39.4206,20.0147,10.88,74,100,7.83,GR,1678138817
542,lexington,37.9887,-84.4777,23.0,37,0,7.72,US,1678138803
543,bengkulu,-3.8004,102.2655,23.1,90,72,1.7,ID,1678138818
544,salvador,13.8333,-88.9167,28.22,28,66,3.6,SV,1678138818
545,cascais,38.6979,-9.4215,14.47,88,20,8.94,PT,1678138819
546,teya,60.3778,92.6267,-5.65,94,100,4.06,RU,1678138819
547,caarapo,-22.6342,-54.8222,24.51,79,0,1.74,BR,1678138819
548,terney,45.0503,136.6092,1.64,82,26,3.32,RU,1678138820
549,lorengau,-2.0226,147.2712,26.36,81,96,2.45,PG,1678138820
550,praia da vitoria,38.7333,-27.0667,18.14,88,75,12.78,PT,1678138820
551,tecoanapa,16.5167,-98.75,28.9,55,1,5.34,MX,1678138821
552,vilhena,-12.7406,-60.1458,25.12,88,40,1.54,BR,1678138778
553,blagoyevo,63.3667,47.9167,-15.59,98,100,1.9,RU,1678138821
554,vila do maio,15.1333,-23.2167,23.44,76,83,4.81,CV,1678138822
555,sao pedro do piaui,-5.9294,-42.7186,27.79,64,90,1.42,BR,1678138631
556,vostok,46.4856,135.8833,-3.06,98,100,1.9,RU,1678138822
557,deseronto,44.2001,-77.0494,2.89,92,91,2.22,CA,1678138822
558,constitucion,-35.3333,-72.4167,17.64,77,41,4.37,CL,1678138823
559,snezhnogorsk,69.1933,33.2531,-24.12,99,93,2.71,RU,1678138823
560,pavilosta,56.8879,21.1859,-1.05,69,96,3.56,LV,1678138824
561,namikupa,-10.8333,39.6,21.36,99,99,1.43,TZ,1678138824
562,itupiranga,-5.1347,-49.3267,31.18,94,36,1.42,BR,1678138825
563,hovd,48.0056,91.6419,-1.39,34,69,3.19,MN,1678138626
564,jaffna,9.6685,80.0074,25.47,76,6,4.94,LK,1678138825
565,varzelandia,-15.7014,-44.0275,27.5,35,70,1.27,BR,1678138826
566,chuguyevka,44.1653,133.8633,-5.54,96,15,1.66,RU,1678138826
